[
  {
    "globalId": "db540d4b-3ace-406d-9b10-ece67278c395",
    "globalName": "青岛家电国创中心",
    "lat": 36.156178,
    "lon": 120.493318,
    "country": "CN",
    "online": true
  },
  {
    "globalId": "db540d4b-3ace-406d-9b10-ece67278c395",
    "globalName": "杭州隐私计算实验室",
    "lat": 30.21421,
    "lon": 120.204729,
    "country": "CN",
    "online": true
  },
  {
    "globalId": "db540d4b-3ace-406d-9b10-ece67278c395",
    "globalName": "郑州超算联合实验室",
    "lat": 34.819925,
    "lon": 113.548959,
    "country": "CN",
    "online": true
  },
  {
    "globalId": "db540d4b-3ace-406d-9b10-ece67278c395",
    "globalName": "北京北航联合实验室",
    "lat": 39.9809427,
    "lon": 116.34097867654876,
    "country": "CN",
    "online": true
  },
  {
    "globalId": "db540d4b-3ace-406d-9b10-ece67278c395",
    "globalName": "北京大禹智芯",
    "lat": 40.026803,
    "lon": 116.472013,
    "country": "CN",
    "online": true
  },
  {
    "globalId": "db540d4b-3ace-406d-9b10-ece67278c395",
    "globalName": "北京江南天安",
    "lat": 39.977358,
    "lon": 116.385041,
    "country": "CN",
    "online": true
  },
  {
    "globalId": "db540d4b-3ace-406d-9b10-ece67278c395",
    "globalName": "北京信联科技",
    "lat": 40.026832,
    "lon": 116.283893,
    "country": "CN",
    "online": true
  },
  {
    "globalId": "db540d4b-3ace-406d-9b10-ece67278c395",
    "globalName": "南京信联科技",
    "lat": 31.958527,
    "lon": 118.846567,
    "country": "CN",
    "online": true
  },
  {
    "globalId": "db540d4b-3ace-406d-9b10-ece67278c395",
    "globalName": "深圳微言科技",
    "lat": 22.575293,
    "lon": 114.070924,
    "country": "CN",
    "online": true
  },
  {
    "globalId": "db540d4b-3ace-406d-9b10-ece67278c395",
    "globalName": "喀什深喀农牧",
    "lat": 39.476097,
    "lon": 75.996391,
    "country": "CN",
    "online": true
  },
  {
    "globalId": "db540d4b-3ace-406d-9b10-ece67278c395",
    "globalName": "长沙超算中心",
    "lat": 28.178962,
    "lon": 112.950434,
    "country": "CN",
    "online": true
  },
  {
    "globalId": "db540d4b-3ace-406d-9b10-ece67278c395",
    "globalName": "石家庄移动",
    "lat": 38.101321,
    "lon": 115.267165,
    "country": "CN",
    "online": true
  },
  {
    "globalId": "db540d4b-3ace-406d-9b10-ece67278c395",
    "globalName": "常州北邮工业互联网研究院",
    "lat": 31.685021,
    "lon": 119.957698,
    "country": "CN",
    "online": true
  },
  {
    "globalId": "db540d4b-3ace-406d-9b10-ece67278c395",
    "globalName": "广西桂林密码学联合实验室",
    "lat": 25.289893,
    "lon": 110.344571,
    "country": "CN",
    "online": true
  },
  {
    "globalId": "db540d4b-3ace-406d-9b10-ece67278c395",
    "globalName": "石家庄中数智创",
    "lat": 38.037025,
    "lon": 114.569327,
    "country": "CN",
    "online": true
  },
  {
    "globalId": "5c11d9dc-7d39-4d76-95fb-5f8da28388f4",
    "globalName": "北京中信银行",
    "lat": 39.93848,
    "lon": 116.543397,
    "country": "CN",
    "online": false
  },
  {
    "globalId": "5c11d9dc-7d39-4d76-95fb-5f8da28388f4",
    "globalName": "北京保险服务中心",
    "lat": 39.943247,
    "lon": 116.202213,
    "country": "CN",
    "online": false
  },
  {
    "globalId": "5c11d9dc-7d39-4d76-95fb-5f8da28388f4",
    "globalName": "北京北理新源",
    "lat": 39.966138,
    "lon": 116.316577,
    "country": "CN",
    "online": false
  },
  {
    "globalId": "5c11d9dc-7d39-4d76-95fb-5f8da28388f4",
    "globalName": "北京中国移动",
    "lat": 40.104674,
    "lon": 116.373778,
    "country": "CN",
    "online": false,
    "direction": "bottom"
  },
  {
    "globalId": "5c11d9dc-7d39-4d76-95fb-5f8da28388f4",
    "globalName": "石家庄河北银行",
    "lat": 38.020874,
    "lon": 114.721829,
    "country": "CN",
    "online": false
  },
  {
    "globalId": "5c11d9dc-7d39-4d76-95fb-5f8da28388f4",
    "globalName": "上海令牌云",
    "lat": 30.756125,
    "lon": 121.365173,
    "country": "CN",
    "online": false
  }
]

